category,latitude,longitude,description,industry,value,count,city
創新智樞總部及傳統聚落,25.0661064,121.481374,國際經貿重鎮，扮演經濟創新領頭羊角色，串聯各縣市特殊元素，打造區域為主要經貿核心、宜居永續都會、國際企業首選,證券金融、管顧、科學技術服務、資料及資訊服務、電腦設計、電子零組件製造、印刷、倉儲等,100949,470391,臺北市、新北市、基隆市、宜蘭縣
高科技聚落,24.55,121,以客家文化為基底，電子與生技產業的科技元素為發展特色，為一既傳統又現代的生活圈,資通訊、檢測、廢物處理、電子零組件等,66863,188785,桃園市、新竹市、新竹縣、苗栗縣
機械及生活傳產聚落,23.93,120.65,國際級精密機械聚落，並具多元生活產業，近年串聯區域觀光與產業活動，成為中臺灣國際大都會,機械、金屬製品、皮革、毛皮及其製品製造、其他運輸工具及其零件製造、家具、紡織、木竹等,50547,280427,臺中市、南投縣、彰化縣
農食基地,23.33360908,120.2444726,有深厚傳統文化基底，扮演著臺灣大糧倉的角色，將來朝先進農業重要發展基地邁進,農、牧業、食品製造、石油及煤製品、化學材料等,39077,183711,嘉義市、嘉義縣、臺南市
工業聚落親水聚落,22.6093283,120.3536056,在既有能源、生技、金屬產業基礎上，發展海洋與陽光相關產業，發揮海洋文化特色，扮演臺灣重要的國際門戶,化學材料、基本金屬、汙染整治、水上運輸、漁業等,39577,213612,高雄市、屏東縣、澎湖縣
天然資源觀光據點,23.33054,121.29746,以「觀光美地、繁榮家園」為願景，為生態資源和休閒旅遊勝地，友善利用獨特的珍貴資源，為世代居民創造優質生活空間,礦及土石、非金屬礦物製品、觀光(住宿服務、休閒服務)等,2324,30071,花蓮縣、臺東縣
生態觀光區,24.4322,118.3741,對外為永續觀光勝地，對內為幸福宜居環境，善用在地特色推動智慧低碳觀光,航空運輸、水上運輸、住宿服務等,493,4296,金門縣、連江縣